City,Lat,Lng,Max Temp,Humidity,Cloudiness,Wind Speed,Country,Date
geraldton,-28.77,114.6,53.6,76,40,8.05,AU,1591986205
hambantota,6.12,81.12,80.6,100,0,5.82,LK,1591986205
havre-saint-pierre,50.23,-63.6,69.8,46,1,9.17,CA,1591986205
fairbanks,64.84,-147.72,60.8,71,90,1.57,US,1591986033
rikitea,-23.12,-134.97,75.18,80,20,19.64,PF,1591986205
kapaa,22.08,-159.32,78.8,78,40,16.11,US,1591986205
busselton,-33.65,115.33,48.99,79,45,12.33,AU,1591986205
butaritari,3.07,172.79,82.2,77,98,14.18,KI,1591986205
ostrovnoy,68.05,39.51,48.58,66,91,8.01,RU,1591986205
victoria,22.29,114.16,84.0,79,74,3.0,HK,1591985728
punta arenas,-53.15,-70.92,37.4,64,40,18.34,CL,1591986123
tokur,53.13,132.9,41.94,94,19,2.3,RU,1591986206
port hardy,50.7,-127.42,53.6,87,75,6.93,CA,1591986206
tonj,7.27,28.68,78.22,68,7,3.09,SS,1591986206
bredasdorp,-34.53,20.04,53.6,62,8,8.28,ZA,1591986206
laguna,38.42,-121.42,72.0,46,1,14.99,US,1591986055
puerto padre,21.2,-76.6,82.4,78,75,13.87,CU,1591986206
ribeira grande,38.52,-28.7,68.0,72,40,8.05,PT,1591986206
chuy,-33.7,-53.46,67.86,80,73,7.07,UY,1591986206
veraval,20.9,70.37,86.86,76,15,6.26,IN,1591986206
siderno,38.28,16.3,72.0,22,0,2.89,IT,1591986206
thompson,55.74,-97.86,57.2,41,75,5.82,CA,1591986206
kandava,57.04,22.77,65.66,80,28,9.4,LV,1591986206
hobart,-42.88,147.33,46.4,87,85,6.93,AU,1591985915
miri,4.41,114.01,78.8,94,75,1.12,MY,1591985969
cabo san lucas,22.89,-109.91,95.0,38,5,6.93,MX,1591986206
port alfred,-33.59,26.89,55.99,70,47,5.99,ZA,1591986206
yokadouma,3.52,15.05,71.76,94,43,1.14,CM,1591986206
albany,42.6,-73.97,81.0,43,8,13.11,US,1591986206
biltine,14.53,20.92,90.52,21,19,5.39,TD,1591986206
hoopstad,-27.83,25.91,37.6,69,0,6.78,ZA,1591986206
lebu,-37.62,-73.65,51.58,73,45,10.92,CL,1591986206
tongchuan,35.08,109.09,71.04,67,0,4.09,CN,1591986207
qeshm,26.96,56.27,93.2,67,0,6.93,IR,1591986207
ushuaia,-54.8,-68.3,32.0,88,90,29.97,AR,1591986207
jalu,29.03,21.55,98.94,15,0,20.04,LY,1591986207
vaini,-21.2,-175.2,69.8,68,40,11.41,TO,1591986207
mataura,-46.19,168.86,39.0,90,55,5.01,NZ,1591986207
puerto ayora,-0.74,-90.35,80.6,61,20,19.46,EC,1591986207
kavieng,-2.57,150.8,81.84,78,23,9.44,PG,1591986207
qaanaaq,77.48,-69.36,35.65,84,67,3.33,GL,1591986207
poltava,49.59,34.54,71.55,73,32,8.61,UA,1591986207
senneterre,48.38,-77.23,37.4,93,90,9.17,CA,1591986207
new norfolk,-42.78,147.06,44.01,90,93,2.3,AU,1591986207
longyearbyen,78.22,15.64,41.0,75,75,23.04,SJ,1591986207
cherskiy,68.75,161.3,60.89,61,92,9.82,RU,1591986207
quang ngai,15.12,108.8,79.23,81,36,3.76,VN,1591986207
vestmannaeyjar,63.44,-20.27,50.0,87,90,20.8,IS,1591986207
hithadhoo,-0.6,73.08,84.88,71,99,7.58,MV,1591986207
torbay,47.67,-52.73,69.8,37,40,16.11,CA,1591986207
mahebourg,-20.41,57.7,73.4,83,75,13.87,MU,1591986207
barrow,71.29,-156.79,39.2,80,75,9.55,US,1591986207
klaksvik,62.23,-6.59,48.2,81,5,9.17,FO,1591986207
ponta do sol,32.67,-17.1,69.8,73,40,9.17,PT,1591986207
mount isa,-20.73,139.5,51.8,76,0,4.43,AU,1591986208
cuanala,19.1,-98.32,71.6,40,20,16.11,MX,1591986208
oum hadjer,13.3,19.7,98.44,23,33,10.51,TD,1591986208
cairns,-16.92,145.77,73.4,83,90,10.29,AU,1591986149
tuktoyaktuk,69.45,-133.04,50.0,61,40,10.29,CA,1591986208
benicarlo,40.42,0.43,66.99,52,4,8.01,ES,1591986208
antofagasta,-23.65,-70.4,60.8,77,75,13.87,CL,1591986208
omsukchan,62.53,155.8,48.56,73,100,7.18,RU,1591986208
iqaluit,63.75,-68.51,42.8,56,75,17.22,CA,1591986208
upernavik,72.79,-56.15,33.01,93,24,7.23,GL,1591986208
kaseda,31.42,130.32,77.0,88,75,13.87,JP,1591986208
yellowknife,62.46,-114.35,59.0,67,75,4.7,CA,1591986208
inirida,3.87,-67.92,89.37,57,78,1.83,CO,1591986208
lac du bonnet,50.25,-96.06,63.0,38,0,4.47,CA,1591986208
ivanteyevka,55.97,37.92,70.0,77,75,13.42,RU,1591986208
dingle,11.0,122.67,78.06,82,98,1.54,PH,1591986208
pemangkat,1.17,108.97,80.22,83,49,6.15,ID,1591986208
toora-khem,52.47,96.11,46.56,89,9,3.15,RU,1591986065
cape town,-33.93,18.42,55.0,81,75,5.82,ZA,1591986069
udachnyy,66.42,112.4,44.6,93,90,8.95,RU,1591986208
haapiti,-17.57,-149.87,82.4,74,75,11.41,PF,1591986208
aswan,24.09,32.91,94.06,10,0,11.3,EG,1591986208
bubaque,11.28,-15.83,82.17,76,17,7.29,GW,1591986209
amargosa,-13.03,-39.6,75.79,77,27,8.32,BR,1591986209
djibo,14.1,-1.63,104.59,16,100,11.3,BF,1591986209
along,28.17,94.77,74.17,88,58,0.78,IN,1591986209
abadiania,-16.2,-48.71,80.6,26,40,8.05,BR,1591986209
arraial do cabo,-22.97,-42.03,87.8,45,7,5.82,BR,1591986209
vardo,70.37,31.11,50.0,61,100,21.92,NO,1591986209
sitka,57.05,-135.33,55.4,71,75,3.36,US,1591986084
clyde river,70.47,-68.59,32.0,94,75,17.22,CA,1591986209
voka,59.4,27.58,61.0,64,18,15.37,EE,1591986209
faanui,-16.48,-151.75,80.64,80,2,11.83,PF,1591986209
devils lake,48.11,-98.87,62.6,55,1,14.99,US,1591986209
ancud,-41.87,-73.82,51.01,70,52,9.17,CL,1591986209
tecoanapa,16.52,-98.75,86.27,57,84,8.19,MX,1591986209
leningradskiy,69.38,178.42,46.0,77,100,7.81,RU,1591986209
terrace bay,48.78,-87.1,53.6,54,75,10.29,CA,1591986209
khatanga,71.97,102.5,39.74,70,90,8.68,RU,1591986209
dikson,73.51,80.55,32.83,95,31,5.06,RU,1591986209
atuona,-9.8,-139.03,81.32,79,36,22.95,PF,1591986209
flinders,-34.58,150.86,57.0,92,97,1.01,AU,1591986210
hermanus,-34.42,19.23,54.0,77,14,4.0,ZA,1591986210
henties bay,-22.12,14.28,60.01,69,0,15.32,NA,1591986210
bambous virieux,-20.34,57.76,73.4,83,75,13.87,MU,1591986210
kaniama,-7.57,24.18,72.84,44,6,2.35,CD,1591986210
kitale,1.02,35.01,55.85,94,16,1.07,KE,1591986210
castro,-24.79,-50.01,73.85,63,37,10.02,BR,1591986210
wittmund,53.57,7.78,73.4,64,40,14.99,DE,1591986210
necochea,-38.55,-58.74,60.01,54,97,5.99,AR,1591986210
jamestown,42.1,-79.24,64.0,59,20,14.99,US,1591986159
akyab,20.15,92.9,83.66,84,100,12.08,MM,1591986210
tyret pervaya,53.67,102.31,49.78,82,33,5.01,RU,1591986210
pevek,69.7,170.31,43.63,77,47,2.55,RU,1591986210
taoudenni,22.68,-3.98,107.44,12,0,15.5,ML,1591986210
kodiak,57.79,-152.41,53.6,71,90,3.36,US,1591986210
khangarh,29.92,71.16,96.8,47,40,8.93,PK,1591986210
kathu,7.92,98.33,82.4,78,20,6.93,TH,1591986210
beira,-19.84,34.84,73.62,82,1,20.36,MZ,1591986210
ouesso,1.61,16.05,72.52,93,31,1.77,CG,1591986210
adrar,20.5,-10.07,103.59,14,0,11.52,MR,1591986118
ellsworth,44.54,-68.42,77.0,64,1,12.75,US,1591986211
bluff,-46.6,168.33,39.0,90,50,5.01,NZ,1591986211
opuwo,-18.06,13.84,60.3,34,10,11.5,NA,1591986211
lardos,36.09,28.02,73.0,83,20,13.87,GR,1591986211
marawi,8.0,124.29,75.99,91,100,5.99,PH,1591986211
coquimbo,-29.95,-71.34,64.4,52,0,12.75,CL,1591986211
caravelas,-17.71,-39.25,81.45,67,35,8.86,BR,1591986211
deoria,26.5,83.79,91.58,51,45,17.96,IN,1591986211
tezu,27.92,96.17,76.55,85,81,1.74,IN,1591986211
sioux lookout,50.1,-91.92,53.6,54,75,8.05,CA,1591986211
camapua,-19.53,-54.04,86.63,36,26,11.63,BR,1591986211
vung tau,10.35,107.08,80.89,86,100,16.06,VN,1591986211
bainbridge,47.63,-122.52,57.2,76,90,10.29,US,1591986137
taltal,-25.4,-70.48,66.29,58,4,6.78,CL,1591986211
santa cruz,-17.8,-63.17,86.0,54,40,32.21,BO,1591986027
broome,42.25,-75.83,72.0,46,40,12.75,US,1591986211
avarua,-21.21,-159.78,73.4,69,81,8.05,CK,1591986211
calabar,4.95,8.32,76.73,89,63,3.44,NG,1591986211
valparaiso,-33.04,-71.63,55.4,81,40,6.93,CL,1591986120
kaitangata,-46.28,169.85,39.99,75,3,1.01,NZ,1591986212
luderitz,-26.65,15.16,60.8,44,0,13.87,NA,1591986212
namatanai,-3.67,152.43,79.39,79,74,5.53,PG,1591986212
kahului,20.89,-156.47,80.6,57,20,19.46,US,1591986055
yumen,40.28,97.2,63.21,28,32,11.52,CN,1591986212
lorengau,-2.02,147.27,82.08,78,36,7.05,PG,1591986212
bathsheba,13.22,-59.52,87.8,62,40,16.11,BB,1591986212
sur,22.57,59.53,90.59,51,26,7.27,OM,1591986212
isangel,-19.55,169.27,72.55,78,94,15.39,VU,1591986212
vanimo,-2.67,141.3,77.94,86,60,4.74,PG,1591986212
bandar-e lengeh,26.56,54.88,87.8,84,0,4.7,IR,1591986212
pavlogradka,54.2,73.56,65.34,76,84,9.4,RU,1591986212
korla,41.76,86.15,79.0,42,75,4.0,CN,1591986212
codrington,-38.27,141.97,53.98,70,98,17.98,AU,1591986212
mgandu,-5.95,34.13,67.87,64,97,4.54,TZ,1591986212
cabedelo,-6.98,-34.83,84.2,66,40,13.87,BR,1591986212
jaque,7.52,-78.17,83.39,70,25,6.64,PA,1591986212
tahta,26.77,31.5,91.98,15,0,10.27,EG,1591986212
brigantine,39.41,-74.36,86.0,28,1,9.17,US,1591986212
broken hill,-31.95,141.43,51.8,62,68,12.75,AU,1591986212
ambon,-3.7,128.18,81.0,94,52,7.31,ID,1591986212
hilo,19.73,-155.09,75.2,78,90,3.36,US,1591986213
kamensk-uralskiy,56.42,61.93,57.25,90,86,14.47,RU,1591986213
bitung,1.45,125.18,77.0,94,40,1.12,ID,1591986213
hofn,64.25,-15.21,50.0,87,75,16.11,IS,1591986213
airai,-8.93,125.41,60.35,100,65,2.86,TL,1591986213
ilulissat,69.22,-51.1,35.6,80,20,9.17,GL,1591986213
shumyachi,53.86,32.42,70.63,89,44,7.83,RU,1591986213
polunochnoye,60.87,60.42,45.01,60,48,8.77,RU,1591986213
toyota,35.08,137.15,75.2,94,75,2.24,JP,1591986213
brinkovskaya,46.03,38.59,68.99,88,93,7.52,RU,1591986213
sabang,5.89,95.32,83.66,76,85,7.05,ID,1591986213
port lincoln,-34.73,135.87,61.59,62,100,27.98,AU,1591986213
ko samui,9.54,99.94,85.39,70,71,12.93,TH,1591986213
kutiyana,21.62,69.98,87.64,72,23,6.58,IN,1591986213
banda aceh,5.56,95.32,81.39,77,95,5.86,ID,1591986213
conde,-7.26,-34.91,84.2,66,40,13.87,BR,1591986213
east london,-33.02,27.91,59.95,45,13,18.75,ZA,1591986213
kruisfontein,-34.0,24.73,50.32,62,0,12.24,ZA,1591986213
singkang,2.1,102.8,78.8,83,40,2.24,MY,1591986214
livezile,47.18,24.57,64.18,92,88,2.82,RO,1591986214
savinka,50.08,47.1,74.61,56,0,11.61,RU,1591986214
cozumel,20.51,-86.95,88.0,66,40,10.29,MX,1591986214
peniche,39.36,-9.38,64.99,76,2,5.01,PT,1591986214
matagami,49.75,-77.63,39.2,93,90,17.22,CA,1591986214
aklavik,68.22,-135.01,59.0,51,75,6.93,CA,1591986214
kalmunai,7.42,81.82,82.74,72,37,3.71,LK,1591986214
inhapim,-19.55,-42.12,77.94,58,46,4.56,BR,1591986214
itoman,26.12,127.67,80.6,94,20,11.41,JP,1591986214
pacific grove,36.62,-121.92,68.0,59,20,8.05,US,1591986110
lompoc,34.64,-120.46,66.99,72,52,10.29,US,1591986109
anadyr,64.75,177.48,64.4,63,98,11.18,RU,1591986214
flin flon,54.77,-101.86,57.2,50,20,10.29,CA,1591986214
suntar,62.14,117.63,48.09,95,39,7.54,RU,1591986214
saint-philippe,-21.36,55.77,71.6,72,75,4.7,RE,1591986214
sao joao da barra,-21.64,-41.05,89.6,46,22,2.24,BR,1591986214
georgetown,5.41,100.34,78.8,94,40,2.24,MY,1591986214
inhambane,-23.86,35.38,68.36,61,98,18.59,MZ,1591986214
grand island,40.92,-98.34,87.8,35,1,11.41,US,1591986059
sorong,-0.88,131.25,78.13,84,98,2.75,ID,1591986214
dunedin,-45.87,170.5,43.0,75,2,1.01,NZ,1591986215
birao,10.28,22.79,85.17,53,45,9.6,CF,1591986215
marzuq,14.4,46.47,87.6,28,97,3.24,YE,1591986215
vysokogornyy,50.12,139.15,42.51,93,100,4.7,RU,1591986215
omboue,-1.57,9.26,74.41,82,53,9.17,GA,1591986215
port elizabeth,-33.92,25.57,55.4,58,11,12.75,ZA,1591986059
mascote,-15.56,-39.3,82.42,55,5,5.91,BR,1591986215
muli,2.92,73.57,84.4,76,90,13.24,MV,1591986215
vestmanna,62.16,-7.17,48.2,81,16,9.17,FO,1591986215
ibipeba,-11.64,-42.01,84.38,36,0,10.51,BR,1591986215
lagoa,39.05,-27.98,63.91,82,99,11.43,PT,1591986215
troitsko-pechorsk,62.71,56.2,43.79,68,86,10.16,RU,1591986215
tasiilaq,65.61,-37.64,39.2,81,40,13.87,GL,1591986215
nanortalik,60.14,-45.24,39.83,90,100,18.23,GL,1591986215
savannah bight,16.45,-85.85,82.87,71,92,4.5,HN,1591986215
porto torres,40.84,8.4,71.6,83,20,11.41,IT,1591986215
constitucion,-35.33,-72.42,55.24,71,14,9.06,CL,1591986215
sakakah,29.97,40.21,86.0,12,0,9.17,SA,1591986215
carnarvon,-24.87,113.63,65.1,68,10,20.49,AU,1591986215
bilibino,68.05,166.44,59.31,65,100,2.48,RU,1591986215
talnakh,69.49,88.4,41.0,75,25,15.66,RU,1591986215
agirish,61.92,63.02,46.94,66,87,9.51,RU,1591986215
norman wells,65.28,-126.83,68.0,49,40,9.17,CA,1591986216
asgabat,37.95,58.38,84.2,17,0,9.17,TM,1591986197
verkhnyaya inta,65.98,60.31,44.17,71,100,5.57,RU,1591986216
petropavlovsk-kamchatskiy,53.05,158.65,39.2,100,90,4.47,RU,1591986216
osoyoos,49.03,-119.45,73.4,93,75,12.75,CA,1591986216
acari,-15.43,-74.62,71.67,54,54,9.69,PE,1591986216
mecca,21.43,39.83,92.12,31,0,6.38,SA,1591986216
rawson,-43.3,-65.1,44.6,87,40,10.29,AR,1591986216
los llanos de aridane,28.66,-17.92,71.6,68,40,5.82,ES,1591986216
bonavista,48.65,-53.11,54.5,58,1,18.9,CA,1591986216
harper,4.38,-7.72,79.27,82,37,11.45,LR,1591986216
beroroha,-21.67,45.17,67.24,44,0,4.97,MG,1591986216
port augusta,-32.5,137.77,62.6,36,100,21.92,AU,1591986216
vikramasingapuram,8.71,77.39,84.2,83,40,1.12,IN,1591986216
albanel,48.88,-72.45,55.4,58,75,13.87,CA,1591986216
novikovo,51.15,37.89,74.37,86,21,9.24,RU,1591986216
lasa,46.62,10.7,55.4,62,20,4.7,IT,1591986216
dickinson,29.46,-95.05,87.01,39,1,6.93,US,1591986002
husavik,66.04,-17.34,57.2,67,87,24.16,IS,1591986216
conceicao do araguaia,-8.26,-49.26,93.2,38,23,8.05,BR,1591986184
manado,1.49,124.85,77.0,94,40,1.12,ID,1591986217
abu samrah,35.3,37.18,69.49,54,0,24.58,SY,1591986217
priboj,44.6,18.93,71.6,49,79,2.24,BA,1591986217
fortuna,40.6,-124.16,59.0,93,90,8.05,US,1591986217
pokrovka,42.34,78.01,50.2,47,15,7.4,KG,1591986217
mahibadhoo,3.78,72.97,84.67,74,99,13.96,MV,1591986217
san martin,-33.08,-68.47,60.8,38,40,10.29,AR,1591986217
southampton,50.9,-1.4,61.0,90,86,3.0,GB,1591985936
makat,47.65,53.35,91.27,14,18,5.19,KZ,1591986217
tuatapere,-46.13,167.68,39.0,90,16,5.01,NZ,1591986217
bethel,41.37,-73.41,82.99,40,1,4.0,US,1591986217
tautira,-17.73,-149.15,82.4,74,75,11.41,PF,1591986217
chokurdakh,70.63,147.92,52.52,75,100,6.78,RU,1591986217
piet retief,-27.01,30.81,36.84,68,0,1.7,ZA,1591986217
emerald,-23.53,148.17,63.0,88,40,4.7,AU,1591986217
mar del plata,-38.0,-57.56,64.0,59,74,6.93,AR,1591985975
half moon bay,37.46,-122.43,69.01,87,90,8.05,US,1591986217
pisco,-13.7,-76.22,69.01,82,20,11.41,PE,1591986217
kihei,20.79,-156.47,80.6,57,20,19.46,US,1591986217
bac giang,21.27,106.2,80.6,83,100,6.93,VN,1591986217
ankang,32.68,109.02,74.43,80,84,2.59,CN,1591986218
nizhniy kuranakh,58.84,125.49,49.75,71,63,2.57,RU,1591986218
amapa,1.0,-52.0,84.88,70,54,4.36,BR,1591986218
hasaki,35.73,140.83,72.0,100,75,5.82,JP,1591986218
galbshtadt,53.23,78.98,70.38,51,8,7.09,RU,1591986218
honiara,-9.43,159.95,73.4,100,20,3.36,SB,1591986218
sidi ali,36.1,0.42,70.32,54,0,14.41,DZ,1591986218
ruza,55.7,36.2,64.4,72,75,15.66,RU,1591986218
gwadar,25.12,62.33,87.87,61,0,6.49,PK,1591986218
srednekolymsk,67.45,153.68,59.22,58,97,7.43,RU,1591986218
la orilla,17.98,-102.23,90.73,52,10,8.59,MX,1591986218
abashiri,44.02,144.27,57.49,62,3,10.92,JP,1591986218
emba,48.83,58.14,76.26,32,36,4.0,KZ,1591986218
beringovskiy,63.05,179.32,45.48,72,56,3.42,RU,1591986218
arroyo,41.61,-4.8,55.0,87,40,16.11,ES,1591986218
kaka,37.35,59.61,85.17,14,0,6.26,TM,1591986218
ornskoldsvik,63.29,18.72,64.4,31,1,6.93,SE,1591986218
quatre cocos,-20.21,57.76,73.4,83,75,13.87,MU,1591986218
buala,-8.14,159.59,80.83,74,78,2.95,SB,1591986218
tomatlan,19.93,-105.25,91.99,49,41,8.68,MX,1591986218
bahia de caraquez,-0.6,-80.42,82.4,74,40,12.75,EC,1591986218
touros,-5.2,-35.46,82.4,74,20,11.41,BR,1591986219
ankazoabo,-22.28,44.52,64.78,53,0,5.23,MG,1591986219
bourail,-21.57,165.48,67.44,85,90,4.12,NC,1591986219
pangkalanbuun,-2.68,111.62,74.35,96,37,1.97,ID,1591986219
fort nelson,58.81,-122.7,64.4,68,75,2.24,CA,1591986219
shingu,33.73,135.98,72.5,94,59,6.49,JP,1591986219
malindi,-3.22,40.12,80.6,78,75,13.87,KE,1591986219
kishapu,-3.62,33.87,75.38,51,79,5.66,TZ,1591986219
sao filipe,14.9,-24.5,77.85,72,2,9.64,CV,1591986219
cidreira,-30.18,-50.21,73.51,78,47,14.2,BR,1591986219
iquitos,-3.75,-73.25,89.6,66,75,5.82,PE,1591986110
guayaquil,-2.17,-79.9,86.0,62,20,4.7,EC,1591985994
saint-pierre,-21.34,55.48,66.2,72,75,4.7,RE,1591986219
baraboo,43.47,-89.74,78.8,44,1,9.17,US,1591986219
ayan,56.45,138.17,41.13,96,100,14.38,RU,1591986219
griffith,41.53,-87.42,77.0,56,1,3.62,US,1591986219
fort wayne,41.13,-85.13,80.6,32,20,5.82,US,1591986219
eureka,40.8,-124.16,59.0,100,90,5.82,US,1591986219
saint george,37.1,-113.58,97.0,11,1,9.17,US,1591986219
pedasi,7.53,-80.03,82.65,72,62,7.56,PA,1591986219
saskylakh,71.92,114.08,42.6,68,88,11.77,RU,1591986219
kologriv,58.83,44.32,51.71,74,46,4.81,RU,1591986219
mackay,-21.15,149.2,69.8,94,90,6.93,AU,1591986220
praia da vitoria,38.73,-27.07,66.2,88,75,9.57,PT,1591986220
namibe,-15.2,12.15,68.36,71,0,5.66,AO,1591986220
abha,18.22,42.51,77.0,44,41,6.93,SA,1591986220
saldanha,-33.01,17.94,51.8,87,0,2.24,ZA,1591986220
nouadhibou,20.93,-17.03,95.0,30,0,33.33,MR,1591986220
colares,38.8,-9.45,66.0,82,40,10.29,PT,1591986220
freeport,40.66,-73.58,86.0,42,1,14.99,US,1591986132
tanete,-3.94,119.78,74.55,92,86,2.91,ID,1591986220
shawinigan,46.57,-72.75,68.0,37,40,21.92,CA,1591986220
isabela,6.71,121.97,78.8,88,40,4.7,PH,1591986220
palu,-0.89,119.87,76.12,79,87,3.51,ID,1591986220
birecik,37.03,37.99,68.0,60,0,6.93,TR,1591986220
san matias,-16.37,-58.4,93.49,35,29,9.8,BO,1591986220
cerrito,6.84,-72.69,78.8,65,40,8.05,CO,1591986220
bengkulu,-3.8,102.27,76.64,88,85,5.23,ID,1591986220
sao jose da coroa grande,-8.9,-35.15,80.91,72,17,9.86,BR,1591986220
singaparna,-7.35,108.11,70.3,86,85,1.23,ID,1591986220
moree,-29.47,149.85,53.6,81,75,9.17,AU,1591986220
qaqortoq,60.72,-46.03,44.6,75,75,9.17,GL,1591986220
aspindza,41.57,43.25,56.59,77,99,4.03,GE,1591986220
comodoro rivadavia,-45.87,-67.5,37.4,59,40,11.41,AR,1591986220
sola,-13.88,167.55,79.41,87,87,23.47,VU,1591986220
haaksbergen,52.16,6.74,80.01,43,47,1.99,NL,1591986221
dhidhdhoo,6.88,73.1,83.28,78,100,13.82,MV,1591986221
luangwa,-15.62,30.42,70.63,41,5,0.76,ZM,1591986221
misratah,32.38,15.09,74.66,66,0,15.03,LY,1591986221
burlatskoye,45.06,43.63,73.96,67,68,7.56,RU,1591986221
narsaq,60.92,-46.05,44.6,75,75,9.17,GL,1591986221
xuddur,4.12,43.89,77.43,66,93,16.6,SO,1591986221
bandarbeyla,9.49,50.81,83.21,66,19,29.04,SO,1591986221
awjilah,29.11,21.29,98.46,16,0,22.17,LY,1591986221
gamarra,8.32,-73.74,88.29,63,36,3.91,CO,1591986221
tateyama,34.98,139.87,73.99,100,86,14.7,JP,1591986221
ciudad bolivar,8.12,-63.55,93.81,39,48,4.5,VE,1591986221
warud,21.47,78.27,90.59,44,100,9.42,IN,1591986221
sawtell,-30.38,153.1,62.6,82,90,9.17,AU,1591986221
tutoia,-2.76,-42.27,84.79,79,22,6.55,BR,1591986221
jesup,31.61,-81.89,89.6,55,40,4.34,US,1591986221
fukue,32.69,128.84,77.36,92,67,20.56,JP,1591986221
marsa matruh,31.35,27.25,74.57,60,72,8.21,EG,1591986221
moville,42.49,-96.07,84.99,32,1,5.91,US,1591986222
provideniya,64.38,-173.3,49.53,65,18,2.17,RU,1591986222
roald,62.58,6.13,70.0,52,93,8.05,NO,1591986222
mehamn,71.04,27.85,50.0,66,100,23.04,NO,1591986222
benjamin aceval,-24.97,-57.57,89.6,46,68,14.99,PY,1591986222
san rafael,-34.62,-68.33,60.96,32,50,14.34,AR,1591986180
souillac,-20.52,57.52,73.4,83,75,13.87,MU,1591986222
vao,-22.67,167.48,72.01,76,90,19.57,NC,1591986222
aljezur,37.32,-8.8,70.0,57,3,12.8,PT,1591986222
zhanaozen,43.3,52.8,87.67,13,0,10.27,KZ,1591986222
shumskiy,54.83,99.13,52.65,83,22,4.43,RU,1591986222
solnechnyy,50.72,136.63,49.39,73,100,5.99,RU,1591986222
port hedland,-20.32,118.57,64.4,77,40,1.36,AU,1591986222
amarpatan,24.32,80.98,94.57,39,82,7.4,IN,1591986222
jeremie,18.65,-74.12,83.5,69,100,3.53,HT,1591986222
yar-sale,66.83,70.83,45.59,58,8,14.12,RU,1591986222
ballina,-28.87,153.57,60.8,93,90,4.7,AU,1591986222
cooma,-36.23,149.13,37.4,100,72,8.05,AU,1591986169
havelock,34.88,-76.9,75.99,83,90,5.82,US,1591986093
nurlat,54.43,50.81,60.01,90,84,11.92,RU,1591986222
chicama,-7.84,-79.15,74.35,57,15,11.03,PE,1591986222
balgazyn,51.0,95.2,48.56,80,10,3.4,RU,1591986222
severo-kurilsk,50.68,156.12,42.15,93,100,22.64,RU,1591986222
kurchum,48.57,83.65,64.06,59,0,4.47,KZ,1591986223
maniitsoq,65.42,-52.9,39.78,73,68,7.72,GL,1591986223
sabha,27.04,14.43,101.23,9,0,10.27,LY,1591986223
puerto maldonado,-12.6,-69.18,89.6,55,20,5.82,PE,1591986171
lavrentiya,65.58,-171.0,42.39,80,36,3.62,RU,1591986223
bagamoyo,-6.43,38.9,78.8,78,75,5.82,TZ,1591986223
tiksi,71.69,128.87,42.26,76,87,1.52,RU,1591986223
angoche,-16.23,39.91,73.78,71,9,6.93,MZ,1591986223
manta,-0.95,-80.73,82.4,74,40,12.75,EC,1591986223
joao camara,-5.54,-35.82,82.4,74,20,11.41,BR,1591986223
itarema,-2.92,-39.92,83.08,78,49,12.68,BR,1591986223
boralday,43.36,76.86,60.8,55,40,4.47,KZ,1591986223
tual,-5.67,132.75,80.02,85,55,12.95,ID,1591986223
chiredzi,-21.05,31.67,63.57,30,0,8.59,ZW,1591986223
dolzhanskaya,46.63,37.8,73.99,100,65,10.67,RU,1591986223
nyuksenitsa,60.41,44.24,49.87,63,0,6.17,RU,1591986223
acarau,-2.89,-40.12,83.41,77,61,11.72,BR,1591986223
mount gambier,-37.83,140.77,51.8,76,100,16.11,AU,1591986223
tahe,52.33,124.73,50.07,64,5,3.53,CN,1591986223
mao,39.89,4.27,69.8,88,75,9.17,ES,1591986223
bend,44.06,-121.32,64.4,52,1,6.93,US,1591985759
olafsvik,64.89,-23.71,41.99,92,100,15.84,IS,1591986224
ketchikan,55.34,-131.65,55.4,87,90,16.11,US,1591986224
nikolskoye,59.7,30.79,66.2,34,12,11.18,RU,1591986224
pitea,65.32,21.48,64.4,48,27,6.93,SE,1591985936
maningrida,-12.07,134.27,68.63,85,11,6.91,AU,1591986224
leh,34.17,77.58,53.33,39,8,6.8,IN,1591986109
miles city,46.41,-105.84,86.0,30,1,8.05,US,1591986224
dire dawa,9.59,41.87,75.88,49,53,10.02,ET,1591986224
wawa,9.9,4.42,80.65,69,99,2.48,NG,1591986224
prijepolje,43.37,19.64,60.8,67,86,3.36,RS,1591986224
ugoofaaru,5.67,73.0,84.34,75,84,13.89,MV,1591986224
newport,51.59,-3.0,63.0,95,97,14.9,GB,1591986224
jatai,-17.88,-51.71,82.78,41,0,8.52,BR,1591986187
ekhabi,53.51,142.97,39.04,97,100,16.98,RU,1591986224
uzice,43.86,19.85,60.8,67,81,3.36,RS,1591986224
saint anthony,45.02,-93.22,75.99,49,1,6.93,US,1591986092
muroto,33.28,134.15,75.06,94,100,7.0,JP,1591986224
lincoln,40.8,-96.67,88.0,38,1,11.41,US,1591986224
gat,31.61,34.76,78.01,50,20,1.99,IL,1591986224
noyabrsk,63.2,75.45,51.53,75,100,14.41,RU,1591986224
beloha,-25.17,45.05,62.47,80,0,2.48,MG,1591986224
te anau,-45.42,167.72,32.95,93,2,0.96,NZ,1591986225
vostok,46.49,135.88,49.23,100,56,5.64,RU,1591986225
sobolevo,54.43,31.9,69.08,90,44,11.03,RU,1591986225
salinopolis,-0.61,-47.36,82.72,77,75,10.27,BR,1591986225
tambacounda,13.75,-13.76,104.0,33,40,6.93,SN,1591986225
katherine,-14.47,132.27,62.6,72,93,5.82,AU,1591986225
sarangani,5.4,125.46,83.03,78,87,12.37,PH,1591986225
bozhou,33.88,115.77,71.31,89,90,6.89,CN,1591986225
landeck,47.13,10.56,59.0,62,20,4.7,AT,1591986225
vrangel,42.73,133.08,60.13,91,45,0.36,RU,1591986225
constantine,36.37,6.61,77.0,38,40,12.75,DZ,1591986225
gamba,-2.65,10.0,73.42,85,20,7.63,GA,1591986225
homer,59.64,-151.55,51.8,76,1,5.82,US,1591986225
evensk,61.95,159.23,47.28,68,100,0.58,RU,1591986225
arraias,-12.93,-46.94,86.47,34,0,5.37,BR,1591986225
marsh harbour,26.54,-77.06,79.47,75,28,16.37,BS,1591986225
zapolyarnyy,69.42,30.81,55.4,50,100,9.17,RU,1591986225
sharjah,25.36,55.4,95.0,41,2,3.36,AE,1591986016
grindavik,63.84,-22.43,48.2,100,90,23.04,IS,1591986225
san patricio,19.22,-104.7,80.6,83,75,11.41,MX,1591986225
alta floresta,-9.88,-56.09,95.0,39,40,5.82,BR,1591986225
axim,4.87,-2.24,79.23,85,86,12.86,GH,1591986225
morong,14.51,121.24,80.6,78,40,2.24,PH,1591986225
toguchin,55.24,84.39,61.77,89,0,6.78,RU,1591986226
mvomero,-6.25,38.67,78.8,78,75,5.82,TZ,1591986226
wuwei,37.93,102.64,69.01,40,100,9.13,CN,1591986226
sheridan,44.83,-106.92,89.6,15,1,14.99,US,1591986226
caetite,-14.07,-42.48,79.84,39,0,7.83,BR,1591986226
ayorou,14.73,0.92,103.01,21,40,10.22,NE,1591986226
katsuura,35.13,140.3,75.0,93,74,11.18,JP,1591986226
huarmey,-10.07,-78.15,70.23,64,34,12.21,PE,1591986226
kushima,31.46,131.23,77.0,88,75,13.87,JP,1591986226
kabare,-2.47,28.82,61.57,84,53,1.41,CD,1591986226
port hueneme,34.15,-119.2,71.6,68,75,8.05,US,1591986226
poronaysk,49.22,143.12,50.92,73,100,12.37,RU,1591986226
guerrero negro,27.98,-114.06,78.75,37,0,14.7,MX,1591986226
port shepstone,-30.74,30.45,58.26,49,0,11.81,ZA,1591986226
kibuye,-2.06,29.35,67.48,72,58,2.33,RW,1591986226
khuzdar,27.74,66.64,84.13,12,0,5.3,PK,1591986226
san cristobal,7.77,-72.22,89.6,46,20,9.17,VE,1591986226
podgorica,42.44,19.26,71.6,60,40,4.7,ME,1591986226
chapais,49.78,-74.85,48.2,57,90,14.99,CA,1591986226
arman,59.7,150.17,45.75,88,99,4.54,RU,1591986227
caudry,50.12,3.41,68.0,70,99,5.01,FR,1591986227
chisec,15.82,-90.28,88.59,48,98,4.27,GT,1591986227
miyako,39.64,141.95,62.74,54,100,3.38,JP,1591986227
pindiga,9.98,10.93,85.59,53,13,10.09,NG,1591986227
zhaotong,27.32,103.72,63.68,91,97,5.64,CN,1591986227
makakilo city,21.35,-158.09,80.6,65,75,10.29,US,1591986227
payo,-3.75,103.64,73.31,93,97,2.19,ID,1591986227
richards bay,-28.78,32.04,60.6,59,0,8.97,ZA,1591986227
krasnoselkup,65.7,82.47,47.12,58,69,9.73,RU,1591986227
soe,-9.86,124.28,65.8,100,21,4.12,ID,1591986227
siuri,23.92,87.53,85.06,74,100,10.16,IN,1591986227
merritt,50.11,-120.79,57.2,71,40,5.82,CA,1591986147
mogadishu,2.04,45.34,79.75,82,60,17.87,SO,1591986197
dudinka,69.41,86.18,41.0,75,1,15.66,RU,1591986227
obzor,42.82,27.88,66.2,93,75,2.24,BG,1591986227
chulumani,-16.41,-67.53,78.04,43,94,5.55,BO,1591986227
shimoda,34.67,138.95,74.97,92,95,10.29,JP,1591986227
kinablangan,7.69,126.55,78.6,78,93,3.65,PH,1591986228
kjollefjord,70.95,27.35,50.0,66,100,23.04,NO,1591986228
leeton,-34.57,146.4,48.2,93,100,8.05,AU,1591986228
emporia,38.4,-96.18,89.6,31,1,8.05,US,1591986116
great yarmouth,52.61,1.73,61.0,98,98,1.99,GB,1591986228
morondava,-20.28,44.28,74.12,73,0,9.13,MG,1591986228
parintins,-2.63,-56.74,83.89,83,46,2.17,BR,1591986228
bolbec,49.57,0.47,68.0,52,20,9.17,FR,1591986228
nagato,34.38,131.2,75.2,100,75,1.12,JP,1591986228
quesnel,53.0,-122.5,59.0,82,20,4.63,CA,1591985965
christchurch,-43.53,172.63,32.0,100,30,2.24,NZ,1591986181
faya,18.39,42.45,77.0,44,35,6.93,SA,1591986228
promyshlennovskiy,55.48,86.2,64.4,77,44,8.95,RU,1591986228
margate,51.38,1.39,64.0,88,99,4.0,GB,1591986228
canalete,8.68,-76.2,86.0,70,40,2.24,CO,1591986228
fare,-16.7,-151.02,81.54,79,1,14.0,PF,1591986228
tucuman,-26.82,-65.22,73.4,69,99,4.7,AR,1591986228
port pirie,-33.18,138.02,62.6,36,100,21.92,AU,1591986228
kuandian,40.73,124.78,56.98,90,7,0.96,CN,1591986228
carbondale,37.73,-89.22,88.0,31,1,3.36,US,1591985965
raudeberg,61.99,5.14,77.0,31,57,6.93,NO,1591986228
vila do maio,15.13,-23.22,82.4,65,0,16.11,CV,1591986228
dryden,49.78,-92.75,57.2,33,1,6.93,CA,1591986229
san andres,12.58,-81.7,77.0,94,90,6.93,CO,1591986010
churapcha,62.0,132.43,47.12,71,55,8.23,RU,1591986229
bolivar,37.61,-93.41,84.99,45,70,7.43,US,1591986229
cururupu,-1.83,-44.87,82.4,82,99,4.94,BR,1591986041
nelson bay,-32.72,152.15,55.0,100,90,4.7,AU,1591986229
el alto,-4.27,-81.21,78.8,57,0,17.22,PE,1591986229
iskateley,67.68,53.15,41.05,72,73,14.47,RU,1591986229
ndele,8.41,20.65,74.71,79,46,3.11,CF,1591986229
suwalki,54.11,22.93,71.62,87,83,10.38,PL,1591986229
karratha,-20.74,116.85,72.97,51,75,3.33,AU,1591986229
tromso,69.65,18.96,51.8,66,14,12.75,NO,1591986229
nikolayevsk-na-amure,53.14,140.73,41.76,93,100,6.02,RU,1591986229
bennington,42.88,-73.2,75.2,44,1,11.41,US,1591986229
merke,42.87,73.18,63.57,40,1,5.37,KZ,1591986229
santa cruz de la palma,28.68,-17.76,71.6,68,40,5.82,ES,1591986229
port moresby,-9.44,147.18,77.0,100,75,3.36,PG,1591986229
elizabeth city,36.29,-76.25,77.0,64,90,12.75,US,1591986229
venado tuerto,-33.75,-61.97,61.77,31,61,15.12,AR,1591986229
puerto baquerizo moreno,-0.9,-89.6,78.8,69,75,17.22,EC,1591986229
denpasar,-8.65,115.22,78.8,94,20,5.82,ID,1591986230
westport,41.14,-73.36,86.0,37,1,14.99,US,1591985939
camopi,3.17,-52.32,87.42,62,67,3.85,GF,1591986230
conceicao da barra,-18.59,-39.73,81.88,66,9,8.5,BR,1591986230
grootfontein,-19.57,18.12,49.21,46,0,9.66,NA,1591986230
santa ines,-3.67,-45.38,85.77,71,62,5.21,BR,1591986141
somerset,40.57,-74.55,84.99,32,1,8.05,US,1591986230
shwebo,22.57,95.7,84.52,67,100,14.07,MM,1591986230
nanga eboko,4.68,12.37,70.45,95,74,2.13,CM,1591986230
bukid,5.57,125.41,81.66,78,99,10.04,PH,1591986230
atbasar,51.8,68.33,71.15,47,38,5.88,KZ,1591986230
nagpur,21.15,79.1,77.0,100,75,4.7,IN,1591986230
khilok,51.37,110.47,44.08,86,23,5.88,RU,1591986230
coihaique,-45.58,-72.07,37.4,80,40,3.36,CL,1591986230
cockburn town,21.46,-71.14,84.2,70,40,4.7,TC,1591986230
ocho rios,18.4,-77.1,79.0,87,100,3.0,JM,1591986230
manokwari,-0.87,134.08,78.98,76,95,3.78,ID,1591986230
panguna,-6.32,155.48,68.32,95,98,1.59,PG,1591986230
saint-gilles,43.68,4.43,69.01,77,90,20.8,FR,1591986230
velizh,55.61,31.2,63.88,94,92,10.27,RU,1591986230
gambela,8.25,34.58,73.45,84,100,2.24,ET,1591986230
dalvik,65.97,-18.53,57.2,67,97,24.16,IS,1591986230
khuzhir,53.19,107.34,48.9,69,41,10.67,RU,1591986231
santa isabel do rio negro,-0.41,-65.02,86.63,60,80,3.71,BR,1591986231
rocha,-34.48,-54.33,65.55,83,68,5.66,UY,1591986231
sale,34.04,-6.82,71.01,73,75,16.11,MA,1591986231
boldumsaz,42.13,59.67,82.4,26,0,2.24,TM,1591986231
tabuk,17.42,121.44,73.56,90,98,3.74,PH,1591986231
manutuke,-38.68,177.92,48.99,90,100,4.0,NZ,1591986231
muravlenko,63.79,74.52,51.6,66,100,9.98,RU,1591986231
diffa,13.32,12.61,94.39,27,0,15.59,NE,1591986231
forbes,-33.38,148.02,55.0,82,100,1.99,AU,1591986231
lashio,22.93,97.75,69.31,99,100,1.41,MM,1591986231
asau,46.43,26.4,71.01,74,65,3.31,RO,1591986231
sambalpur,21.45,83.97,84.81,73,100,2.21,IN,1591986231
antunez,19.02,-102.2,78.8,54,75,6.93,MX,1591986231
tazovskiy,67.47,78.7,43.99,63,16,12.17,RU,1591986231
nador,35.17,-2.93,69.8,68,20,18.34,MA,1591986231
gimli,50.63,-96.99,63.0,38,8,5.64,CA,1591986231
togur,58.36,82.83,59.81,86,73,5.53,RU,1591986231
hokitika,-42.72,170.97,42.37,67,0,5.77,NZ,1591986231
balvi,57.13,27.27,62.85,83,84,8.77,LV,1591986231
uaua,-9.84,-39.48,82.58,52,82,16.06,BR,1591986231
linares,-35.85,-71.6,53.91,73,61,5.7,CL,1591986231
yaan,7.38,8.57,80.22,75,89,3.06,NG,1591986231
almaznyy,48.04,40.05,78.8,50,20,8.95,RU,1591986232
salalah,17.02,54.09,86.0,84,75,5.82,OM,1591986232
ulagan,50.63,87.96,50.65,61,11,1.21,RU,1591986232
